"id";"objectid";"point_lat";"point_lng";"shape";"objecttype";"type_velo";"ligging";"straatnaam";"huisnummer";"aanvulling";"district";"postcode";"objectcode";"gebruik"
"1";"34245";"51.22808499687600";"4.40899727964430";"";"VELOSTATION";"";"";"GODEFRIDUSKAAI";" ";"thv Q-park";"ANTWERPEN";"2000";"VE_0000129";"IN_GEBRUIK"
"4";"34246";"51.21769705473500";"4.42074669702170";"";"VELOSTATION";"ENKELZIJDIG";"";"Koningin Astridplein (2018)";" ";"to station 1";"ANTWERPEN";"2018";"VE_0000002";"IN_GEBRUIK"
"7";"34247";"51.21823125905600";"4.41237587196630";"";"VELOSTATION";"ENKELZIJDIG";"";"Meir (2000)";"84";" ";"ANTWERPEN";"2000";"VE_0000026";"IN_GEBRUIK"
"10";"34248";"51.21903296640100";"4.40404667608570";"";"VELOSTATION";"";"";"Eiermarkt (2000)";"12";" ";"ANTWERPEN";"2000";"VE_0000019";"IN_GEBRUIK"
"13";"34249";"51.21868479063400";"4.40065792907480";"";"VELOSTATION";"ENKELZIJDIG";"";"Groenkerkhofstraat (2000)";"2";"thv nationalestraat";"ANTWERPEN";"2000";"VE_0000020";"IN_GEBRUIK"
"16";"34250";"51.21203597374700";"4.38969413428130";"";"VELOSTATION";"";"";"Cockerillkaai (2000)";" ";"to leuvenstraat";"ANTWERPEN";"2000";"VE_0000035";"IN_GEBRUIK"
"19";"34251";"51.20472224976700";"4.39628968011120";"";"VELOSTATION";"ENKELZIJDIG";"";"PALEISSTRAAT";"147";" ";"ANTWERPEN";"2018";"VE_0000094";"IN_GEBRUIK"
"22";"34252";"51.19932102356700";"4.39007484471240";"";"VELOSTATION";"";"";"Singel (2018)";" ";"tssn singel en brederodestraat";"ANTWERPEN";"2018";"VE_0000012";"IN_GEBRUIK"
"25";"34253";"51.21951425466400";"4.41168895065670";"";"VELOSTATION";"";"";"Lange Nieuwstraat (2000)";"105";" ";"ANTWERPEN";"2000";"VE_0000027";"IN_GEBRUIK"
"28";"34254";"51.20583274741900";"4.41837091686160";"";"VELOSTATION";"";"";"Belgiëlei (2018)";"99";" ";"ANTWERPEN";"2018";"VE_0000044";"IN_GEBRUIK"
"31";"34255";"51.21012452888900";"4.42234589823390";"";"VELOSTATION";"ENKELZIJDIG";"";"Mercatorstraat (2018)";"18";"to 18";"ANTWERPEN";"2018";"VE_0000006";"IN_GEBRUIK"
"34";"34256";"51.21004470253200";"4.42825632943060";"";"VELOSTATION";"";"";"Plantin en Moretuslei (2140)";" ";" ";"BORGERHOUT";"2140";"VE_0000111";"IN_GEBRUIK"
"37";"34257";"51.22412482469100";"4.43213582978210";"";"VELOSTATION";"";"";"Lange Stuivenbergstraat (2060)";"86-88";"to 86-88";"ANTWERPEN";"2060";"VE_0000101";"IN_GEBRUIK"
"40";"34258";"51.22760980223100";"4.43921360139810";"";"VELOSTATION";"";"";"Schijnpoortweg (2060)";"27-29";" ";"ANTWERPEN";"2060";"VE_0000120";"IN_GEBRUIK"
"43";"34259";"51.23140826956100";"4.37865931048760";"";"VELOSTATION";"";"";"August Vermeylenlaan (2050)";"7";"to 7";"ANTWERPEN";"2050";"VE_0000144";"IN_GEBRUIK"
"46";"34260";"51.22788381836900";"4.37864146512850";"";"VELOSTATION";"";"";"August Vermeylenlaan (2050)";" ";"charles de costerlaan";"ANTWERPEN";"2050";"VE_0000145";"IN_GEBRUIK"
"49";"34261";"51.21838953713400";"4.38558346368550";"";"VELOSTATION";"ENKELZIJDIG";"";"Beatrijslaan (2050)";"42";" ";"ANTWERPEN";"2050";"VE_0000153";"IN_GEBRUIK"
"52";"34262";"51.22000679951100";"4.37573391961640";"";"VELOSTATION";"ENKELZIJDIG";"";"Blancefloerlaan (2050)";"163-165";" ";"ANTWERPEN";"2050";"VE_0000152";"IN_GEBRUIK"
"55";"34263";"51.22059112225600";"4.38647651642890";"";"VELOSTATION";"ENKELZIJDIG";"";"Blancefloerlaan (2050)";" ";"to frederick van eedenplein";"ANTWERPEN";"2050";"VE_0000149";"IN_GEBRUIK"
"58";"34264";"51.23337734142900";"4.38253818064570";"";"VELOSTATION";"ENKELZIJDIG";"";"Esmoreitlaan (2050)";"13";"thv lodewijk van veltheimlaan";"ANTWERPEN";"2050";"VE_0000142";"IN_GEBRUIK"
"61";"34265";"51.22311537852100";"4.38624360483970";"";"VELOSTATION";"";"";"Frederik van Eedenplein (2050)";"4";"to 4";"ANTWERPEN";"2050";"VE_0000148";"IN_GEBRUIK"
"64";"34266";"51.23137742352300";"4.38610805085890";"";"VELOSTATION";"";"";"Gloriantlaan (2050)";"31";" ";"ANTWERPEN";"2050";"VE_0000143";"IN_GEBRUIK"
"67";"34267";"51.23517819031800";"4.38684514415280";"";"VELOSTATION";"";"";"Gloriantlaan (2050)";" ";"thv kastanjedreef";"ANTWERPEN";"2050";"VE_0000141";"IN_GEBRUIK"
"70";"34268";"51.23125799953500";"4.39162224281040";"";"VELOSTATION";"";"";"Thonetlaan (2050)";" ";"to jachthaven";"ANTWERPEN";"2050";"VE_0000140";"IN_GEBRUIK"
"73";"34269";"51.22399175809000";"4.37789826867840";"";"VELOSTATION";"";"";"Halewijnlaan (2050)";"88";" ";"ANTWERPEN";"2050";"VE_0000147";"IN_GEBRUIK"
"76";"34270";"51.22764750982100";"4.38587309620960";"";"VELOSTATION";"ENKELZIJDIG";"";"Reinaartlaan (2050)";" ";"thv gloriantlaan";"ANTWERPEN";"2050";"VE_0000146";"IN_GEBRUIK"
"79";"34271";"51.22008425610600";"4.38179009719210";"";"VELOSTATION";"";"";"Waterhoenlaan (2050)";"12";" ";"ANTWERPEN";"2050";"VE_0000150";"IN_GEBRUIK"
"82";"34272";"51.23135451585400";"4.40356629504520";"";"VELOSTATION";"DUBBELZIJDIG";"";"Amsterdamstraat (2000)";" ";"thv rijnkaai";"ANTWERPEN";"2000";"VE_0000138";"IN_GEBRUIK"
"85";"34273";"51.23106877499700";"4.41267138046990";"";"VELOSTATION";"ENKELZIJDIG";"";"Londenstraat (2000)";"53";" ";"ANTWERPEN";"2000";"VE_0000139";"IN_GEBRUIK"
"88";"34274";"51.22970049419300";"4.40572274169410";"";"VELOSTATION";"";"";"Sint-Laureiskaai (2000)";" ";" ";"ANTWERPEN";"2000";"VE_0000137";"IN_GEBRUIK"
"91";"34275";"51.22163752410500";"4.40050168751400";"";"VELOSTATION";"";"";"Wisselstraat (2000)";"12";"to 12";"ANTWERPEN";"2000";"VE_0000060";"IN_GEBRUIK"
"94";"34276";"51.22823962010500";"4.41336974357810";"";"VELOSTATION";"";"";"Italiëlei (2000)";"4";"thv FOD financien";"ANTWERPEN";"2000";"VE_0000127";"IN_GEBRUIK"
"97";"34277";"51.19683198906900";"4.40579270468220";"";"VELOSTATION";"";"";"Jan Van Rijswijcklaan (2018)";"86";" ";"ANTWERPEN";"2018";"VE_0000014";"IN_GEBRUIK"
"100";"34278";"51.22373497017100";"4.40297193731650";"";"VELOSTATION";"ENKELZIJDIG";"";"Sint-Paulusstraat (2000)";"42";"thv lange koepoortstraat";"ANTWERPEN";"2000";"VE_0000050";"IN_GEBRUIK"
"103";"34279";"51.21279490270200";"4.40942912926730";"";"VELOSTATION";"";"";"Oudevaartplaats (2000)";" ";"thv frankrijklei";"ANTWERPEN";"2000";"VE_0000077";"IN_GEBRUIK"
"106";"34280";"51.20594642078600";"4.39288065261590";"";"VELOSTATION";"";"";"Amerikalei (2000)";"162";"graaf van hoorplein thv graaf van hoornstraat";"ANTWERPEN";"2000";"VE_0000080";"IN_GEBRUIK"
"109";"34281";"51.19683539384800";"4.39631884968460";"";"VELOSTATION";"";"";"Desguinlei (2018)";"246";"to 246 oh plein";"ANTWERPEN";"2018";"VE_0000040";"IN_GEBRUIK"
"112";"34282";"51.22240483034400";"4.43004365758740";"";"VELOSTATION";"";"";"Duinstraat (2060)";"83-87";" ";"ANTWERPEN";"2060";"VE_0000102";"IN_GEBRUIK"
"115";"34283";"51.22803377765500";"4.41898701094480";"";"VELOSTATION";"";"";"Lange Dijkstraat (2060)";"46";"thv van aerdtstraat";"ANTWERPEN";"2060";"VE_0000126";"IN_GEBRUIK"
"118";"34284";"51.21399229225700";"4.39799376041440";"";"VELOSTATION";"";"";"Nationalestraat (2000)";"111-113";"to 111-113 thv lange vlierstraat";"ANTWERPEN";"2000";"VE_0000076";"IN_GEBRUIK"
"121";"34285";"51.20363221944800";"4.41524202133090";"";"VELOSTATION";"";"";"Belgiëlei (2018)";"157";"thv greterystraat";"ANTWERPEN";"2018";"VE_0000043";"IN_GEBRUIK"
"124";"34286";"51.20105345453300";"4.43400942603720";"";"VELOSTATION";"ENKELZIJDIG";"";"Burgemeester E. Ryckaertsplein (2600)";" ";"NMBS station Berchem";"BERCHEM";"2600";"VE_0000008";"IN_GEBRUIK"
"127";"34287";"51.20341310301200";"4.43676572188850";"";"VELOSTATION";"";"";"Uitbreidingstraat (2600)";"578";" ";"BERCHEM";"2600";"VE_0000112";"IN_GEBRUIK"
"130";"34288";"51.21027536720800";"4.39686301243820";"";"VELOSTATION";"";"";"Karel Rogierstraat (2000)";"2-4";" ";"ANTWERPEN";"2000";"VE_0000016";"IN_GEBRUIK"
"133";"34289";"51.21125374444500";"4.44197710132670";"";"VELOSTATION";"";"";"Fonteinstraat (2140)";"70";"to 70";"BORGERHOUT";"2140";"VE_0000069";"IN_GEBRUIK"
"136";"34290";"51.22036949096400";"4.37858257586720";"";"VELOSTATION";"DUBBELZIJDIG";"";"Blancefloerlaan (2050)";"48a";"to 48a middenberm thv halewijnlaan";"ANTWERPEN";"2050";"VE_0000151";"IN_GEBRUIK"
"139";"34291";"51.21785962520300";"4.41646188770250";"";"VELOSTATION";"ENKELZIJDIG";"";"De Keyserlei (2018)";" ";"thv van ertbornstraat";"ANTWERPEN";"2018";"VE_0000024";"IN_GEBRUIK"
"142";"34292";"51.19907271424900";"4.41545358080330";"";"VELOSTATION";"";"";"Grotesteenweg (2600)";" ";"thv boomgaardstraat";"BERCHEM";"2600";"VE_0000046";"IN_GEBRUIK"
"145";"34293";"51.20155129396500";"4.42357517753960";"";"VELOSTATION";"";"";"Boomgaardstraat (2018)";" ";"thv militair hospitaal";"ANTWERPEN";"2018";"VE_0000047";"IN_GEBRUIK"
"148";"34294";"51.21550779607000";"4.42563836686210";"";"VELOSTATION";"";"";"Provinciestraat (2018)";" ";"thv plein";"ANTWERPEN";"2018";"VE_0000119";"IN_GEBRUIK"
"151";"34295";"51.22604203613400";"4.42342560318940";"";"VELOSTATION";"";"";"Van Kerckhovenstraat (2060)";"16";"to 16 thv st-norbertusstraat";"ANTWERPEN";"2060";"VE_0000125";"IN_GEBRUIK"
"154";"34296";"51.22287837314500";"4.40622400402100";"";"VELOSTATION";"";"";"Mutsaardstraat (2000)";" ";"mutsaardplein thv blindestraat";"ANTWERPEN";"2000";"VE_0000051";"IN_GEBRUIK"
"157";"34297";"51.20078257680600";"4.39807744703140";"";"VELOSTATION";"";"";"Fransenplaats (2018)";" ";"thv moonstraat";"ANTWERPEN";"2018";"VE_0000041";"IN_GEBRUIK"
"160";"34298";"51.19690552880400";"4.42807315200130";"";"VELOSTATION";"";"";"Vredestraat (2600)";"99";"thv zonnebloemstraat";"BERCHEM";"2600";"VE_0000055";"IN_GEBRUIK"
"163";"34299";"51.21301725372000";"4.42163843776500";"";"VELOSTATION";"DUBBELZIJDIG";"";"Kievitplein (2018)";" ";" ";"ANTWERPEN";"2018";"VE_0000003";"IN_GEBRUIK"
"166";"34300";"51.20691982223300";"4.43013065810740";"";"VELOSTATION";"";"";"Dageraadplaats (2018)";" ";" ";"ANTWERPEN";"2018";"VE_0000110";"IN_GEBRUIK"
"169";"34301";"51.19791127187300";"4.42541479447380";"";"VELOSTATION";"";"";"Statiestraat (2600)";" ";"thv victor jacobslei";"BERCHEM";"2600";"VE_0000061";"IN_GEBRUIK"
"172";"34302";"51.19553644769100";"4.41912805007720";"";"VELOSTATION";"";"";"Grotesteenweg (2600)";" ";"thv driekoningenstraat";"BERCHEM";"2600";"VE_0000021";"IN_GEBRUIK"
"175";"34303";"51.19976002069600";"4.43046662327710";"";"VELOSTATION";"";"";"Statiestraat (2600)";" ";"thv posthoflei";"BERCHEM";"2600";"VE_0000022";"IN_GEBRUIK"
"178";"34304";"51.21630874248500";"4.43351645889900";"";"VELOSTATION";"";"";"Laar (2140)";" ";"thv kerkplein";"BORGERHOUT";"2140";"VE_0000030";"IN_GEBRUIK"
"181";"34305";"51.21119547964800";"4.43395643499260";"";"VELOSTATION";"";"";"Koxplein (2140)";" ";"thv betogingstraat";"BORGERHOUT";"2140";"VE_0000039";"IN_GEBRUIK"
"184";"34306";"51.21602259606500";"4.43996908535890";"";"VELOSTATION";"";"";"Krugerplein (2140)";" ";"thv delarayestraat                 ";"BORGERHOUT";"2140";"VE_0000108";"IN_GEBRUIK"
"187";"34307";"51.21738806187900";"4.42001646693320";"";"VELOSTATION";"ENKELZIJDIG";"";"De Keyserlei (2018)";"57";" ";"ANTWERPEN";"2018";"VE_0000004";"IN_GEBRUIK"
"190";"34308";"51.22150861148300";"4.40868822321410";"";"VELOSTATION";"";"";"Keizerstraat (2000)";"56-58";"to 56-58";"ANTWERPEN";"2000";"VE_0000028";"IN_GEBRUIK"
"193";"34309";"51.20377699279700";"4.42077013046000";"";"VELOSTATION";"ENKELZIJDIG";"";"Lamorinièrestraat (2018)";"148";" ";"ANTWERPEN";"2018";"VE_0000130";"IN_GEBRUIK"
"196";"34310";"51.20537333682800";"4.41351779471680";"";"VELOSTATION";"ENKELZIJDIG";"";"Sint-Vincentiusstraat (2018)";"61";"to 61";"ANTWERPEN";"2018";"VE_0000093";"IN_GEBRUIK"
"199";"34311";"51.19844525696200";"4.40219662728780";"";"VELOSTATION";"ENKELZIJDIG";"";"Van Schoonbekestraat (2018)";" ";"thv markgravelei";"ANTWERPEN";"2018";"VE_0000089";"IN_GEBRUIK"
"202";"34312";"51.20576894398400";"4.39879385445840";"";"VELOSTATION";"ENKELZIJDIG";"";"Boudewijnsstraat (2018)";"19-21";"to 19-21";"ANTWERPEN";"2018";"VE_0000085";"IN_GEBRUIK"
"205";"34313";"51.21336707125200";"4.41327703383260";"";"VELOSTATION";"ENKELZIJDIG";"";"Rubenslei (2018)";" ";"thv ingang park";"ANTWERPEN";"2018";"VE_0000096";"IN_GEBRUIK"
"208";"34314";"51.21650381345300";"4.39374722646900";"";"VELOSTATION";"";"";"Plantinkaai (2000)";"27";"to 27";"ANTWERPEN";"2000";"VE_0000065";"IN_GEBRUIK"
"211";"34315";"51.21888381446600";"4.40119750243500";"";"VELOSTATION";"ENKELZIJDIG";"";"Groenplaats (2000)";"7";" ";"ANTWERPEN";"2000";"VE_0000017";"IN_GEBRUIK"
"214";"34316";"51.22187539291200";"4.41289259056530";"";"VELOSTATION";"ENKELZIJDIG";"";"Pieter van Hobokenstraat (2000)";"19-21";" ";"ANTWERPEN";"2000";"VE_0000054";"IN_GEBRUIK"
"217";"34317";"51.22724086891500";"4.42228468155020";"";"VELOSTATION";"ENKELZIJDIG";"";"Trapstraat (2060)";"10";" ";"ANTWERPEN";"2060";"VE_0000118";"IN_GEBRUIK"
"220";"34318";"51.22734414679600";"4.43069659595460";"";"VELOSTATION";"";"";"Stuivenbergplein (2060)";"36-1";"to 36-1";"ANTWERPEN";"2060";"VE_0000121";"IN_GEBRUIK"
"223";"34319";"51.19294471557800";"4.42103436520040";"";"VELOSTATION";"";"";"Heilig Hartstraat (2600)";" ";"naast de kerk";"BERCHEM";"2600";"VE_0000103";"IN_GEBRUIK"
"226";"34320";"51.19312160918300";"4.40800264304510";"";"VELOSTATION";"ENKELZIJDIG";"";"Karel Oomsstraat (2018)";"69";"to 69 od middenberm thv binnensingel";"ANTWERPEN";"2018";"VE_0000031";"IN_GEBRUIK"
"229";"34321";"51.19375572983500";"4.41223689172320";"";"VELOSTATION";"ENKELZIJDIG";"";"De Wittestraat (2600)";" ";"thv generaal lemanstraat";"BERCHEM";"2600";"VE_0000131";"IN_GEBRUIK"
"232";"34322";"51.19510434321800";"4.41751680254830";"";"VELOSTATION";"";"";"Frans Van Hombeeckplein (2600)";"10";"to 10";"BERCHEM";"2600";"VE_0000100";"IN_GEBRUIK"
"235";"34323";"51.19709245848000";"4.41027881352030";"";"VELOSTATION";"";"";"Generaal Lemanstraat (2018)";"6";"to 6 thv karel oomsstraat";"ANTWERPEN";"2018";"VE_0000099";"IN_GEBRUIK"
"238";"34324";"51.19846926922200";"4.39071870992600";"";"VELOSTATION";"DUBBELZIJDIG";"";"Desguinlei (2018)";" ";"kielsbroek thv montignystraat";"ANTWERPEN";"2018";"VE_0000010";"IN_GEBRUIK"
"241";"34325";"51.19987539393900";"4.41878996120190";"";"VELOSTATION";"ENKELZIJDIG";"";"Boomgaardstraat (2018)";"31";" ";"ANTWERPEN";"2018";"VE_0000098";"IN_GEBRUIK"
"244";"34326";"51.20077334534700";"4.39421324791480";"";"VELOSTATION";"ENKELZIJDIG";"";"Lange Elzenstraat (2018)";"56";" ";"ANTWERPEN";"2018";"VE_0000087";"IN_GEBRUIK"
"247";"34327";"51.20103730383300";"4.43405976594590";"";"VELOSTATION";"ENKELZIJDIG";"";"Burgemeester E. Ryckaertsplein (2600)";" ";"NMBS station Berchem";"BERCHEM";"2600";"VE_0000007";"IN_GEBRUIK"
"250";"34328";"51.20898020182700";"4.43769553737610";"";"VELOSTATION";"ENKELZIJDIG";"";"Wilrijkstraat (2140)";" ";"thv plantin moretuslei";"BORGERHOUT";"2140";"VE_0000009";"IN_GEBRUIK"
"253";"34329";"51.20119382970200";"4.40224224576010";"";"VELOSTATION";"ENKELZIJDIG";"";"Van Trierstraat (2018)";"2";"to 2 thv haantjeslei";"ANTWERPEN";"2018";"VE_0000088";"IN_GEBRUIK"
"256";"34330";"51.20177747718200";"4.40606503642410";"";"VELOSTATION";"ENKELZIJDIG";"";"Lange Lozanastraat (2018)";" ";" ";"ANTWERPEN";"2018";"VE_0000029";"IN_GEBRUIK"
"259";"34331";"51.20228446617300";"4.41207056691840";"";"VELOSTATION";"ENKELZIJDIG";"";"Mechelsesteenweg (2018)";" ";"thv ingang harmoniepark";"ANTWERPEN";"2018";"VE_0000042";"IN_GEBRUIK"
"262";"34332";"51.20320765555800";"4.42844611628450";"";"VELOSTATION";"ENKELZIJDIG";"";"Stanleystraat (2018)";"1";"to 1 thv lange leemstraat";"ANTWERPEN";"2018";"VE_0000097";"IN_GEBRUIK"
"265";"34333";"51.20341796491700";"4.39184231515370";"";"VELOSTATION";"";"";"Troonplaats (2018)";" ";"thv montignystraat";"ANTWERPEN";"2018";"VE_0000086";"IN_GEBRUIK"
"268";"34334";"51.20459747639000";"4.41056984059590";"";"VELOSTATION";"ENKELZIJDIG";"";"Mechelsesteenweg (2018)";"180";" ";"ANTWERPEN";"2018";"VE_0000092";"IN_GEBRUIK"
"271";"34335";"51.20454625106400";"4.40477472399490";"";"VELOSTATION";"ENKELZIJDIG";"";"Vinkenstraat (2018)";"7";"to 7";"ANTWERPEN";"2018";"VE_0000090";"IN_GEBRUIK"
"274";"34336";"51.20472026940900";"4.38763761217780";"";"VELOSTATION";"";"";"Bolivarplaats (2000)";" ";"thv gerechtsgebouw";"ANTWERPEN";"2000";"VE_0000081";"IN_GEBRUIK"
"277";"34337";"51.20544717338500";"4.43226389496800";"";"VELOSTATION";"ENKELZIJDIG";"";"Draakplaats (2018)";" ";" ";"BERCHEM";"2600";"VE_0000106";"IN_GEBRUIK"
"280";"34338";"51.20772229774200";"4.39839990622010";"";"VELOSTATION";"ENKELZIJDIG";"";"Amerikalei (2000)";"82";" ";"ANTWERPEN";"2000";"VE_0000083";"IN_GEBRUIK"
"283";"34339";"51.20782169070700";"4.39439279364560";"";"VELOSTATION";"";"";"Beeldhouwersstraat (2000)";" ";"thv admiraal de boisotstraat";"ANTWERPEN";"2000";"VE_0000015";"IN_GEBRUIK"
"286";"34340";"51.20823733012300";"4.42433083482810";"";"VELOSTATION";"ENKELZIJDIG";"";"Provinciestraat (2018)";" ";"thv mercatorstraat";"ANTWERPEN";"2018";"VE_0000104";"IN_GEBRUIK"
"289";"34341";"51.20883007611900";"4.38731573207820";"";"VELOSTATION";"ENKELZIJDIG";"";"Verviersstraat (2000)";"2-4";"thv waalsekaai";"ANTWERPEN";"2000";"VE_0000082";"IN_GEBRUIK"
"292";"34342";"51.20882303673500";"4.40829787138240";"";"VELOSTATION";"ENKELZIJDIG";"";"Mechelsesteenweg (2018)";"66";" ";"ANTWERPEN";"2018";"VE_0000091";"IN_GEBRUIK"
"295";"34343";"51.20903567738300";"4.43265526829760";"";"VELOSTATION";"ENKELZIJDIG";"";"Plantin en Moretuslei (2018)";"158";" ";"ANTWERPEN";"2018";"VE_0000105";"IN_GEBRUIK"
"298";"34344";"51.20917545332100";"4.40289724729680";"";"VELOSTATION";"";"";"Britselei (2000)";"86-94";" ";"ANTWERPEN";"2000";"VE_0000078";"IN_GEBRUIK"
"301";"34345";"51.20985192518800";"4.39097536022640";"";"VELOSTATION";"";"";"Vlaamsekaai (2000)";"35";" ";"ANTWERPEN";"2000";"VE_0000075";"IN_GEBRUIK"
"304";"34346";"51.21005679564400";"4.41738906547230";"";"VELOSTATION";"ENKELZIJDIG";"";"Van Eycklei (2018)";"48";"to 48";"ANTWERPEN";"2018";"VE_0000116";"IN_GEBRUIK"
"307";"34347";"51.21103842550900";"4.39033278891670";"";"VELOSTATION";"";"";"Leuvenstraat (2000)";" ";"thv waalse kaai";"ANTWERPEN";"2000";"VE_0000034";"IN_GEBRUIK"
"310";"34348";"51.21097112458700";"4.40723666607260";"";"VELOSTATION";"";"";"Britselei (2000)";"4";"thv mechelsesteenweg";"ANTWERPEN";"2000";"VE_0000079";"IN_GEBRUIK"
"313";"34349";"51.21172804054100";"4.43778526416540";"";"VELOSTATION";"ENKELZIJDIG";"";"Maarschalk Montgomeryplein (2140)";"4";"to 4 oh plein";"BORGERHOUT";"2140";"VE_0000132";"IN_GEBRUIK"
"316";"34350";"51.21190494070100";"4.39894010188910";"";"VELOSTATION";"";"";"Kronenburgstraat (2000)";"82";"to 82";"ANTWERPEN";"2000";"VE_0000072";"IN_GEBRUIK"
"319";"34351";"51.21231285795800";"4.39405507402880";"";"VELOSTATION";"ENKELZIJDIG";"";"Kloosterstraat (2000)";"164";"to 164 thv kronenburgstraat";"ANTWERPEN";"2000";"VE_0000074";"IN_GEBRUIK"
"322";"34352";"51.21303454307900";"4.42176292641520";"";"VELOSTATION";"DUBBELZIJDIG";"";"Lange Kievitstraat (2018)";"70";" ";"ANTWERPEN";"2018";"VE_0000005";"IN_GEBRUIK"
"325";"34353";"51.21346174189900";"4.40496447740210";"";"VELOSTATION";"";"";"Lange Gasthuisstraat (2000)";"3";"to 3";"ANTWERPEN";"2000";"VE_0000084";"IN_GEBRUIK"
"328";"34354";"51.21373300461200";"4.43329880983210";"";"VELOSTATION";"ENKELZIJDIG";"";"Moorkensplein (2140)";"33";"to 33";"BORGERHOUT";"2140";"VE_0000107";"IN_GEBRUIK"
"331";"34355";"51.21527786875400";"4.41198309396560";"";"VELOSTATION";"";"";"Tabakvest (2000)";"42";" ";"ANTWERPEN";"2000";"VE_0000037";"IN_GEBRUIK"
"334";"34356";"51.21416319808600";"4.41619619164530";"";"VELOSTATION";"ENKELZIJDIG";"";"Quinten Matsijslei (2018)";"12";" ";"ANTWERPEN";"2018";"VE_0000095";"IN_GEBRUIK"
"337";"34357";"51.21486075296500";"4.39627370079490";"";"VELOSTATION";"";"";"Sint-Andriesplaats (2000)";"23";"to 23 oh plein";"ANTWERPEN";"2000";"VE_0000070";"IN_GEBRUIK"
"340";"34358";"51.21483362857000";"4.39250897982580";"";"VELOSTATION";"";"";"Sint-Michielskaai (2000)";"21";"to 21";"ANTWERPEN";"2000";"VE_0000071";"IN_GEBRUIK"
"343";"34359";"51.21577799313000";"4.40314241625040";"";"VELOSTATION";"ENKELZIJDIG";"";"Oudaan (2000)";"14";" ";"ANTWERPEN";"2000";"VE_0000067";"IN_GEBRUIK"
"346";"34360";"51.21642827210600";"4.40597990509630";"";"VELOSTATION";"ENKELZIJDIG";"";"Schuttershofstraat (2000)";"2";" ";"ANTWERPEN";"2000";"VE_0000036";"IN_GEBRUIK"
"349";"34361";"51.21708373345300";"4.40888111503170";"";"VELOSTATION";"ENKELZIJDIG";"";"Wapper (2000)";" ";"thv jodenstraat";"ANTWERPEN";"2000";"VE_0000023";"IN_GEBRUIK"
"352";"34362";"51.21711422976000";"4.39924241735810";"";"VELOSTATION";"";"";"Drukkerijstraat (2000)";"18";" ";"ANTWERPEN";"2000";"VE_0000066";"IN_GEBRUIK"
"355";"34363";"51.21770181613600";"4.42062094306980";"";"VELOSTATION";"ENKELZIJDIG";"";"Koningin Astridplein (2018)";"31-32";" ";"ANTWERPEN";"2018";"VE_0000001";"IN_GEBRUIK"
"358";"34364";"51.21818658068800";"4.40616853610180";"";"VELOSTATION";"";"";"Meir (2000)";"18";" ";"ANTWERPEN";"2000";"VE_0000018";"IN_GEBRUIK"
"361";"34365";"51.21825629729100";"4.41408579806950";"";"VELOSTATION";"DUBBELZIJDIG";"VOETPAD";"Leysstraat (2000)";" 27";"";"ANTWERPEN";"2000";"VE_0000025";"IN_GEBRUIK"
"364";"34366";"51.21862476763400";"4.43059577168810";"";"VELOSTATION";"ENKELZIJDIG";"";"Kerkstraat (2060)";"58";" ";"ANTWERPEN";"2060";"VE_0000109";"IN_GEBRUIK"
"367";"34367";"51.21863643919900";"4.43863505069880";"";"VELOSTATION";"ENKELZIJDIG";"";"Vercammenstraat (2140)";"3";"thv helmstraat";"BORGERHOUT";"2140";"VE_0000113";"IN_GEBRUIK"
"370";"34368";"51.21909171978600";"4.39489977888030";"";"VELOSTATION";"";"";"Plantinkaai (2000)";" ";"to st-jansvliet zuiderterras";"ANTWERPEN";"2000";"VE_0000064";"IN_GEBRUIK"
"373";"34369";"51.21997249866100";"4.41635591335600";"";"VELOSTATION";"";"";"Italiëlei (2000)";" ";"thv franklin rooseveltplaats";"ANTWERPEN";"2000";"VE_0000011";"IN_GEBRUIK"
"376";"34370";"51.22105518472900";"4.39677919856300";"";"VELOSTATION";"ENKELZIJDIG";"";"Ernest Van Dijckkaai (2000)";"11-12";"to 11-12 zuiderterras";"ANTWERPEN";"2000";"VE_0000059";"IN_GEBRUIK"
"379";"34371";"51.22159038025700";"4.40267835770500";"";"VELOSTATION";"ENKELZIJDIG";"";"Wolstraat (2000)";"2";"thv korte koepoortstraat";"ANTWERPEN";"2000";"VE_0000057";"IN_GEBRUIK"
"382";"34372";"51.22173442296300";"4.42070883243310";"";"VELOSTATION";"";"";"De Coninckplein (2060)";"26";"to 26";"ANTWERPEN";"2060";"VE_0000032";"IN_GEBRUIK"
"385";"34373";"51.22210460416800";"4.43375240305970";"";"VELOSTATION";"ENKELZIJDIG";"";"Pesthofstraat (2060)";"7";"to 7";"ANTWERPEN";"2060";"VE_0000114";"IN_GEBRUIK"
"388";"34374";"51.22210579324500";"4.40467399900230";"";"VELOSTATION";"";"";"Minderbroedersrui (2000)";"46";" ";"ANTWERPEN";"2000";"VE_0000056";"IN_GEBRUIK"
"391";"34375";"51.22276821963800";"4.42426381702690";"";"VELOSTATION";"ENKELZIJDIG";"";"Sint-Elisabethstraat (2060)";"63";"thv greinstraat";"ANTWERPEN";"2060";"VE_0000115";"IN_GEBRUIK"
"394";"34376";"51.22434629738200";"4.39907080295900";"";"VELOSTATION";"";"";"Jordaenskaai (2000)";" ";"to saucierstraat";"ANTWERPEN";"2000";"VE_0000058";"IN_GEBRUIK"
"397";"34377";"51.22480801305900";"4.41260815759240";"";"VELOSTATION";"ENKELZIJDIG";"";"Paardenmarkt (2000)";"88";"thv kleine kauwenberg";"ANTWERPEN";"2000";"VE_0000053";"IN_GEBRUIK"
"400";"34378";"51.22470242621400";"4.43658847850890";"";"VELOSTATION";"ENKELZIJDIG";"";"Pothoekstraat (2060)";"122";"to 122";"ANTWERPEN";"2060";"VE_0000122";"IN_GEBRUIK"
"403";"34379";"51.22541893595600";"4.41840487286780";"";"VELOSTATION";"";"";"Sint-Jansplein (2060)";"17";"to 17";"ANTWERPEN";"2060";"VE_0000117";"IN_GEBRUIK"
"406";"34380";"51.22587750107700";"4.41457529154300";"";"VELOSTATION";"";"";"Italiëlei (2000)";"10";"to 10 od zijberm";"ANTWERPEN";"2000";"VE_0000052";"IN_GEBRUIK"
"409";"34381";"51.22585314039600";"4.40085662913700";"";"VELOSTATION";"";"";"Sint-Pietersvliet (2000)";" ";"thv tolhuis";"ANTWERPEN";"2000";"VE_0000049";"IN_GEBRUIK"
"412";"34382";"51.22621557674400";"4.40960835365440";"";"VELOSTATION";"ENKELZIJDIG";"";"Hessenplein (2000)";"2";" ";"ANTWERPEN";"2000";"VE_0000033";"IN_GEBRUIK"
"415";"34383";"51.22795093873400";"4.40220922251000";"";"VELOSTATION";"DUBBELZIJDIG";"VOETPAD";"Sint-Aldegondiskaai (2000)";"2";"thv Bonapartedok";"ANTWERPEN";"2000";"VE_0000135";"IN_GEBRUIK"
"418";"34384";"51.22686804474300";"4.40543441600480";"";"VELOSTATION";"ENKELZIJDIG";"";"Oudeleeuwenrui (2000)";"2";" ";"ANTWERPEN";"2000";"VE_0000045";"IN_GEBRUIK"
"421";"34385";"51.22811160465900";"4.40572910109030";"";"VELOSTATION";"";"";"Godefriduskaai (2000)";" ";"thv oostendekaai";"ANTWERPEN";"2000";"VE_0000134";"IN_GEBRUIK"
"424";"34386";"51.22910121501600";"4.42473001449580";"";"VELOSTATION";"ENKELZIJDIG";"";"Viséstraat (2060)";"14";" ";"ANTWERPEN";"2060";"VE_0000123";"IN_GEBRUIK"
"427";"34387";"51.22943105081000";"4.41126519281130";"";"VELOSTATION";"";"";"Entrepotplaats (2000)";"1";" ";"ANTWERPEN";"2000";"VE_0000133";"IN_GEBRUIK"
"430";"34388";"51.22991615351900";"4.41941860327770";"";"VELOSTATION";"";"";"Ellermanstraat (2060)";"74";"to 74";"ANTWERPEN";"2060";"VE_0000124";"IN_GEBRUIK"
"433";"34389";"51.21453720999100";"4.44373062416890";"";"VELOSTATION";"";"";"Turnhoutsebaan (2140)";"366";"thv stenenbrug                 ";"BORGERHOUT";"2140";"VE_0000068";"IN_GEBRUIK"
"436";"34390";"51.23178118992800";"4.42699430853750";"";"VELOSTATION";"DUBBELZIJDIG";"VOETPAD";"Lange Lobroekstraat (2060)";"220";"to";"ANTWERPEN";"2060";"VE_0000062";"IN_GEBRUIK"
"439";"34391";"51.22993257325600";"4.43167286142200";"";"VELOSTATION";"ENKELZIJDIG";"VOETPAD";"Lange Lobroekstraat (2060)";"93";"to";"ANTWERPEN";"2060";"VE_0000063";"IN_GEBRUIK"
"442";"34392";"51.22011843092400";"4.43269222572140";"";"VELOSTATION";"ENKELZIJDIG";"VOETPAD";"Pastorijstraat (2060)";"28";"to";"ANTWERPEN";"2060";"VE_0000038";"IN_GEBRUIK"
"445";"34393";"51.21231216829700";"4.40363700517620";"";"VELOSTATION";"DUBBELZIJDIG";"VOETPAD";"Maarschalk Gérardstraat (2000)";"25a";" ";"ANTWERPEN";"2000";"VE_0000073";"IN_GEBRUIK"
"448";"34394";"51.19378637304000";"4.40227999944780";"";"VELOSTATION";"DUBBELZIJDIG";"ANDERE";"Jan Van Rijswijcklaan (2018)";" ";"thv de Singel";"ANTWERPEN";"2018";"VE_0000013";"IN_GEBRUIK"
"451";"34395";"51.21729720825600";"4.42014871040640";"";"VELOSTATION";"ENKELZIJDIG";"VOETPAD";"De Keyserlei (2018)";"61";" ";"ANTWERPEN";"2018";"VE_0000048";"IN_GEBRUIK"
"454";"34396";"51.23134586430900";"4.42099868891550";"";"VELOSTATION";"DUBBELZIJDIG";"PLEIN";"Hardenvoort (2060)";"55-57";" ";"ANTWERPEN";"2060";"VE_0000136";"IN_GEBRUIK"
"457";"34397";"51.21906887563400";"4.44436516472200";"";"VELOSTATION";"DUBBELZIJDIG";"PLEIN";"Statielei (2140)";"109";"";"BORGERHOUT";"2140";"VE_0000154";"IN_GEBRUIK"
"460";"34398";"51.21603210919100";"4.44567893288120";"";"VELOSTATION";"ENKELZIJDIG";"";"Statielei (2140)";" ";"thv K Geertsstraat";"BORGERHOUT";"2140";"VE_0000155";"IN_GEBRUIK"
"463";"34399";"51.19250198053300";"4.42158078206320";"";"VELOSTATION";"DUBBELZIJDIG";"MIDDENBERM";"Binnensingel (2600)";" ";"aan binnensingel";"BERCHEM";"2600";"VE_0000157";"IN_GEBRUIK"
"466";"34400";"51.20209747580500";"4.39823826978290";"";"VELOSTATION";"DUBBELZIJDIG";"VOETPAD";"Zuidervelodroom (2018)";"51";"to 35";"ANTWERPEN";"2018";"VE_0000158";"IN_GEBRUIK"
"469";"34401";"51.20559561160900";"4.39927477053260";"";"VELOSTATION";"DUBBELZIJDIG";"VOETPAD";"Boudewijnssteeg (2018)";"1";" fase 3";"ANTWERPEN";"2018";"VE_0000159";"IN_GEBRUIK"
"472";"34402";"51.20337625457500";"4.38879955229610";"";"VELOSTATION";"DUBBELZIJDIG";"GROENZONE";"Brusselstraat (2018)";"5";"to 5";"ANTWERPEN";"2018";"VE_0000160";"BUITEN_GEBRUIK"
"475";"34403";"51.26094866051000";"4.42038536350420";"";"VELOSTATION";"DUBBELZIJDIG";"VOETPAD";"Havanastraat (2030)";"1";" ";"ANTWERPEN";"2030";"VE_0000201";"GEPLAND"
"478";"34404";"51.25361269697300";"4.42316814228930";"";"VELOSTATION";"";"";"Columbiastraat (2030)";" ";"thv Venezuelastraat";"ANTWERPEN";"2030";"VE_0000203";"GEPLAND"
"481";"34405";"51.24996553220400";"4.42090042258380";"";"VELOSTATION";"DUBBELZIJDIG";"PLEIN";"Noorderlaan (2030)";"104B-104C";" ";"ANTWERPEN";"2030";"VE_0000204";"IN_GEBRUIK"
"484";"34406";"51.24478163914200";"4.41433847295960";"";"VELOSTATION";"DUBBELZIJDIG";"GROENZONE";"Groenendaallaan (2030)";"397A";" ";"ANTWERPEN";"2030";"VE_0000205";"IN_GEBRUIK"
"487";"34407";"51.24450356739000";"4.42308901724560";"";"VELOSTATION";"ENKELZIJDIG";"PLEIN";"Bermstraat (2030)";" ";"hoek Groenendaallaan";"ANTWERPEN";"2030";"VE_0000206";"IN_GEBRUIK"
"490";"34408";"51.25364768180300";"4.46369436026000";"";"VELOSTATION";"DUBBELZIJDIG";"";"Van Praetlei (2170)";"252";"to 252";"MERKSEM";"2170";"VE_0000207";"IN_GEBRUIK"
"493";"34409";"51.25451154596800";"4.45469068291610";"";"VELOSTATION";"";"";"Ringlaan (2170)";"74";"to 74";"MERKSEM";"2170";"VE_0000208";"GEPLAND"
"496";"34410";"51.25644164012700";"4.44714961588780";"";"VELOSTATION";"";"";"Korte Bremstraat (2170)";"2";"to Laaglandlaan";"MERKSEM";"2170";"VE_0000209";"GEPLAND"
"499";"34411";"51.25531135686500";"4.43578156576810";"";"VELOSTATION";"DUBBELZIJDIG";"GROENZONE";"Maantjessteenweg (2170)";"175";"";"MERKSEM";"2170";"VE_0000210";"IN_GEBRUIK"
"502";"34412";"51.25121651719600";"4.43730075911700";"";"VELOSTATION";"DUBBELZIJDIG";"GROENZONE";"Rodeloopstraat (2170)";"67";"to 67";"MERKSEM";"2170";"VE_0000211";"IN_GEBRUIK"
"505";"34413";"51.25091049054600";"4.44230624886980";"";"VELOSTATION";"";"";"Rodeloopstraat (2170)";"1-3";"to 1-3";"MERKSEM";"2170";"VE_0000212";"GEPLAND"
"508";"34414";"51.25147752371300";"4.44805350894560";"";"VELOSTATION";"";"PLEIN";"Kroonplein (2170)";"28";"to 28";"MERKSEM";"2170";"VE_0000213";"GEPLAND"
"511";"34415";"51.24817769162000";"4.43244604478060";"";"VELOSTATION";"DUBBELZIJDIG";"GROENZONE";"Lambrechtshoekenlaan (2170)";"133-135";"";"MERKSEM";"2170";"VE_0000214";"IN_GEBRUIK"
"514";"34416";"51.24671399454800";"4.44015013747320";"";"VELOSTATION";"";"";"Nieuwdreef (2170)";"107";" ";"MERKSEM";"2170";"VE_0000215";"GEPLAND"
"517";"34417";"51.24727069109900";"4.44902092668620";"";"VELOSTATION";"";"";"Van Heybeeckstraat (2170)";"28";"to 28";"MERKSEM";"2170";"VE_0000216";"GEPLAND"
"520";"34418";"51.24916625535800";"4.45467813889770";"";"VELOSTATION";"";"";"Bredabaan (2170)";"768";"to 768";"MERKSEM";"2170";"VE_0000217";"GEPLAND"
"523";"34419";"51.24302128357700";"4.43568712872570";"";"VELOSTATION";"";"";"Ullenshofstraat (2170)";"3";"to 3";"MERKSEM";"2170";"VE_0000218";"GEPLAND"
"526";"34420";"51.24216261214900";"4.44251762644290";"";"VELOSTATION";"DUBBELZIJDIG";"VOETPAD";"Borrewaterstraat (2170)";"8";"";"MERKSEM";"2170";"VE_0000219";"IN_GEBRUIK"
"529";"34421";"51.24310308642100";"4.44734748216550";"";"VELOSTATION";"DUBBELZIJDIG";"PLEIN";"Sint-Bartholomeusstraat (2170)";"122";"";"MERKSEM";"2170";"VE_0000220";"IN_GEBRUIK"
"532";"34422";"51.23333551895600";"4.41391126319800";"";"VELOSTATION";"";"";"Binnenvaartstraat (2000)";" ";"to Cadixstraat";"ANTWERPEN";"2000";"VE_0000222";"GEPLAND"
"535";"34423";"51.23334656668000";"4.40311298240930";"";"VELOSTATION";"";"";"Rijnkaai (2000)";"15";" ";"ANTWERPEN";"2000";"VE_0000223";"GEPLAND"
"538";"34424";"51.23452927632500";"4.40954527495220";"";"VELOSTATION";"DUBBELZIJDIG";"VOETPAD";"Indiëstraat (2000)";"3";" ";"ANTWERPEN";"2030";"VE_0000224";"IN_GEBRUIK"
"541";"34425";"51.23048509988700";"4.40768780212420";"";"VELOSTATION";"";"";"Verbindingsdok-Oostkaai (2000)";"9";"to 9";"ANTWERPEN";"2000";"VE_0000225";"GEPLAND"
"544";"34426";"51.23540439427000";"4.42710392019740";"";"VELOSTATION";"";"";"IJzerlaan (2060)";"45-47";" ";"ANTWERPEN";"2060";"VE_0000226";"GEPLAND"
"547";"34427";"51.23276518011900";"4.44433121295490";"";"VELOSTATION";"";"";"Van Cortbeemdelei (2100)";"103-105";"to 103 -105";"DEURNE";"2100";"VE_0000227";"GEPLAND"
"550";"34428";"51.22984265828500";"4.45141365686410";"";"VELOSTATION";"";"";"Van Deynsestraat (2100)";"120";"to 120";"DEURNE";"2100";"VE_0000228";"GEPLAND"
"553";"34429";"51.22615937867100";"4.45198640723530";"";"VELOSTATION";"";"";"Tucherlei (2100)";"12";"hoek J Nellenslei";"DEURNE";"2100";"VE_0000229";"GEPLAND"
"556";"34430";"51.22918930887600";"4.46200691510460";"";"VELOSTATION";"DUBBELZIJDIG";"GROENZONE";"Bosuil (2100)";"80";"";"DEURNE";"2100";"VE_0000230";"IN_GEBRUIK"
"559";"34431";"51.22922237960300";"4.46782794828070";"";"VELOSTATION";"DUBBELZIJDIG";"GROENZONE";"Gallifortlei (2100)";"278";"";"DEURNE";"2100";"VE_0000231";"IN_GEBRUIK"
"562";"34432";"51.22879892777000";"4.47866402282350";"";"VELOSTATION";"DUBBELZIJDIG";"PLEIN";"Wim Saerensplein (2100)";"25";"";"DEURNE";"2100";"VE_0000232";"IN_GEBRUIK"
"565";"34433";"51.22507303185300";"4.46612662135530";"";"VELOSTATION";"DUBBELZIJDIG";"VOETPAD";"Gallifortlei (2100)";"198";" ";"DEURNE";"2100";"VE_0000233";"IN_GEBRUIK"
"568";"34434";"51.22220185201000";"4.46118429715200";"";"VELOSTATION";"";"";"Jan Brochovenstraat (2100)";"28";" ";"DEURNE";"2100";"VE_0000234";"GEPLAND"
"571";"34435";"51.21994228098400";"4.45500951474490";"";"VELOSTATION";"";"";"Cogelsplein (2100)";"19-21";" ";"DEURNE";"2100";"VE_0000235";"GEPLAND"
"574";"34436";"51.21916168348300";"4.46006807227670";"";"VELOSTATION";"";"";"Maurice Dequeeckerplein (2100)";"3";"to 3";"DEURNE";"2100";"VE_0000236";"GEPLAND"
"577";"34437";"51.22043911448900";"4.46918387449290";"";"VELOSTATION";"DUBBELZIJDIG";"GROENZONE";"Ter Rivierenlaan (2100)";"18";" ";"DEURNE";"2100";"VE_0000237";"IN_GEBRUIK"
"580";"34438";"51.22373256733400";"4.47563262876180";"";"VELOSTATION";"";"";"Ertbruggelaan (2100)";"2";" ";"DEURNE";"2100";"VE_0000238";"GEPLAND"
"583";"34439";"51.22126192569900";"4.47947936489700";"";"VELOSTATION";"DUBBELZIJDIG";"VOETPAD";"Ruggeveldlaan (2100)";"549";"";"DEURNE";"2100";"VE_0000239";"IN_GEBRUIK"
"586";"34440";"51.21757223296000";"4.48211938870800";"";"VELOSTATION";"";"";"Ruggeveldlaan (2100)";"488";"naast 488";"DEURNE";"2100";"VE_0000240";"GEPLAND"
"589";"34441";"51.21341650333800";"4.45346812360200";"";"VELOSTATION";"";"";"Collegelaan (2140)";"42-44";"to 42-44";"BORGERHOUT";"2140";"VE_0000241";"GEPLAND"
"592";"34442";"51.21043173138900";"4.45251553659950";"";"VELOSTATION";"";"";"Luitenant Lippenslaan (2140)";"2";"to 2";"BORGERHOUT";"2140";"VE_0000242";"GEPLAND"
"595";"34443";"51.20953497699600";"4.45815736366380";"";"VELOSTATION";"";"";"Herentalsebaan (2100)";"133";" ";"DEURNE";"2100";"VE_0000243";"GEPLAND"
"598";"34444";"51.20778781923200";"4.46528358527830";"";"VELOSTATION";"DUBBELZIJDIG";"ANDERE";"Herentalsebaan (2100)";"299";"";"DEURNE";"2100";"VE_0000244";"IN_GEBRUIK"
"601";"34445";"51.20681148450500";"4.47131692599280";"";"VELOSTATION";"";"";"Florent Pauwelslei (2100)";"1";"to 18";"DEURNE";"2100";"VE_0000245";"GEPLAND"
"604";"34446";"51.20640317249500";"4.45829741160390";"";"VELOSTATION";"";"GROENZONE";"Arenaplein (2100)";"1";"to 1";"DEURNE";"2100";"VE_0000246";"GEPLAND"
"607";"34447";"51.20831912182000";"4.44595122931370";"";"VELOSTATION";"";"";"Luitenant Lippenslaan (2140)";"55-59";" ";"BORGERHOUT";"2140";"VE_0000247";"GEPLAND"
"610";"34448";"51.20597912483300";"4.44925525190560";"";"VELOSTATION";"";"";"Berchemlei (2140)";"67";"to 67 thv De Schans";"BORGERHOUT";"2140";"VE_0000248";"GEPLAND"
"613";"34449";"51.20380962209000";"4.44422529869450";"";"VELOSTATION";"";"";"Frans De Vriendtstraat (2140)";"61";"to 61";"BORGERHOUT";"2140";"VE_0000249";"GEPLAND"
"616";"34450";"51.20110601635600";"4.43899784725210";"";"VELOSTATION";"";"";"Diksmuidelaan (2600)";"8";"hoek Herculusstraat";"BERCHEM";"2600";"VE_0000250";"GEPLAND"
"619";"34451";"51.20396638219400";"4.45209093881400";"";"VELOSTATION";"";"";"Arthur Matthyslaan (2140)";"76";"to 76, to Thibautstraat";"BORGERHOUT";"2140";"VE_0000251";"GEPLAND"
"622";"34452";"51.20001068423100";"4.45028242972780";"";"VELOSTATION";"";"";"Karel De Preterlei (2140)";"222";"to 222";"BORGERHOUT";"2140";"VE_0000252";"GEPLAND"
"625";"34453";"51.19806384568800";"4.45322097661420";"";"VELOSTATION";"";"";"Vosstraat (2140)";"19";" ";"BORGERHOUT";"2140";"VE_0000253";"GEPLAND"
"628";"34454";"51.19754065071900";"4.45960066820310";"";"VELOSTATION";"DUBBELZIJDIG";"MIDDENBERM";"Boekenberglei (2100)";"189";"";"DEURNE";"2100";"VE_0000254";"IN_GEBRUIK"
"631";"34455";"51.20413944424400";"4.46764653918380";"";"VELOSTATION";"";"";"Van den Hautelei (2100)";"90";"to 90";"DEURNE";"2100";"VE_0000255";"GEPLAND"
"634";"34456";"51.19545491708400";"4.44223195494370";"";"VELOSTATION";"";"";"Helderstraat (2600)";"59";" ";"BERCHEM";"2600";"VE_0000256";"GEPLAND"
"637";"34457";"51.19232686886200";"4.44875123164160";"";"VELOSTATION";"";"";"Hofstadestraat (2600)";" ";"hoek Klerkenstraat";"BERCHEM";"2600";"VE_0000257";"GEPLAND"
"640";"34458";"51.19749792812900";"4.44373245601250";"";"VELOSTATION";"";"";"Lodewijk Van Berckenlaan (2140)";"127";"to 127";"BERCHEM";"2600";"VE_0000258";"GEPLAND"
"643";"34459";"51.19332032290600";"4.43703390141250";"";"VELOSTATION";"";"";"Posthofbrug (2600)";" ";"thv Arbeidersstraat";"BERCHEM";"2600";"VE_0000259";"GEPLAND"
"646";"34460";"51.18963657460700";"4.42166095730450";"";"VELOSTATION";"";"";"Hof ter Schriecklaan (2600)";"1";" ";"BERCHEM";"2600";"VE_0000260";"GEPLAND"
"649";"34461";"51.18862689369500";"4.42958881835030";"";"VELOSTATION";"";"";"Henri Prostlaan (2600)";"5";"eind vd keerlus";"BERCHEM";"2600";"VE_0000261";"GEPLAND"
"652";"34462";"51.18932213879200";"4.43561491283990";"";"VELOSTATION";"DUBBELZIJDIG";"GROENZONE";"Rooi (2600)";" ";"thv Achtersteveld";"BERCHEM";"2600";"VE_0000262";"IN_GEBRUIK"
"655";"34463";"51.18300438415100";"4.43873420572870";"";"VELOSTATION";"";"MIDDENBERM";"Fruithoflaan (2600)";"85";"to 85 middenberm";"BERCHEM";"2600";"VE_0000263";"GEPLAND"
"658";"34464";"51.18764833149400";"4.43510168201010";"";"VELOSTATION";"";"ANDERE";"Filip Williotstraat (2600)";"11";" ";"BERCHEM";"2600";"VE_0000264";"GEPLAND"
"661";"34465";"51.18513755926400";"4.43204140958680";"";"VELOSTATION";"";"";"Pulhoflaan (2600)";" ";"thv Lappersbrug";"BERCHEM";"2600";"VE_0000265";"GEPLAND"
"664";"34466";"51.18029833603400";"4.43374925192370";"";"VELOSTATION";"";"MIDDENBERM";"Fruithoflaan (2600)";"3-5";"to 3-5";"BERCHEM";"2600";"VE_0000266";"GEPLAND"
"667";"34467";"51.18588758054600";"4.42338017322400";"";"VELOSTATION";"";"";"Prins Leopoldlaan (2600)";"36";"to 36 od hoek";"BERCHEM";"2600";"VE_0000267";"GEPLAND"
"670";"34468";"51.18296080830700";"4.41848614112680";"";"VELOSTATION";"ENKELZIJDIG";"VOETPAD";"Lindendreef (2020)";" ";"";"ANTWERPEN";"2020";"VE_0000268";"IN_GEBRUIK"
"673";"34469";"51.18309184964300";"4.42431055038260";"";"VELOSTATION";"DUBBELZIJDIG";"GROENZONE";"Troyentenhoflaan (2600)";"120-122";"";"BERCHEM";"2600";"VE_0000269";"IN_GEBRUIK"
"676";"34470";"51.18645277012600";"4.40427058370510";"";"VELOSTATION";"ENKELZIJDIG";"GROENZONE";"Eglantierlaan (2610)";"1";"";"ANTWERPEN";"2020";"VE_0000270";"IN_GEBRUIK"
"679";"34471";"51.18069372630100";"4.40898782415180";"";"VELOSTATION";"DUBBELZIJDIG";"ANDERE";"Beukenlaan (2020)";"24";"to 24 hoek Middelheimlaan";"ANTWERPEN";"2020";"VE_0000271";"IN_GEBRUIK"
"682";"34472";"51.17785774442000";"4.42308028921750";"";"VELOSTATION";"ENKELZIJDIG";"MIDDENBERM";"Groenenborgerlaan (2020)";"199";" ";"ANTWERPEN";"2020";"VE_0000272";"IN_GEBRUIK"
"685";"34473";"51.17581870950700";"4.41283140441960";"";"VELOSTATION";"";"";"Oosterveldlaan (2610)";"8";"to 8";"WILRIJK";"2610";"VE_0000273";"GEPLAND"
"688";"34474";"51.17045060438100";"4.39470574769610";"";"VELOSTATION";"DUBBELZIJDIG";"PLEIN";"Bist (2610)";"";" ";"WILRIJK";"2610";"VE_0000274";"IN_GEBRUIK"
"691";"34475";"51.17436398726100";"4.40333979390190";"";"VELOSTATION";"";"";"Groenenborgerlaan (2610)";"17";" ";"WILRIJK";"2610";"VE_0000275";"GEPLAND"
"694";"34476";"51.18356438745300";"4.39404266161610";"";"VELOSTATION";"DUBBELZIJDIG";"PLEIN";"Kruishofstraat (2610)";"140";"to 140";"WILRIJK";"2610";"VE_0000276";"GEPLAND"
"697";"34477";"51.17707676369800";"4.39972425915880";"";"VELOSTATION";"";"";"Ahornenlaan (2020)";"1";" ";"WILRIJK";"2610";"VE_0000277";"GEPLAND"
"700";"34478";"51.16532141356100";"4.39390150434660";"";"VELOSTATION";"";"GROENZONE";"Oversneslaan (2610)";"54";"";"WILRIJK";"2610";"VE_0000278";"IN_GEBRUIK"
"703";"34479";"51.16820935028300";"4.39443524920290";"";"VELOSTATION";"";"";"Doornstraat (2610)";"2";"naast 2";"WILRIJK";"2610";"VE_0000279";"GEPLAND"
"706";"34480";"51.17672296613100";"4.38241401700170";"";"VELOSTATION";"";"";"Bosheidelaan (2610)";" ";"hoek Rooiboslaan";"WILRIJK";"2610";"VE_0000280";"GEPLAND"
"709";"34481";"51.18247475839300";"4.38540331845170";"";"VELOSTATION";"";"";"Hof Van Tichelen (2020)";"30";"naast 30";"ANTWERPEN";"2020";"VE_0000281";"GEPLAND"
"712";"34482";"51.18023071331100";"4.38086690632970";"";"VELOSTATION";"";"";"Letterkundestraat (2610)";"59-63";" ";"WILRIJK";"2610";"VE_0000282";"GEPLAND"
"715";"34483";"51.18166543667800";"4.37202892960900";"";"VELOSTATION";"";"";"Hollebeekstraat (2660)";"25-27";"to 25-27";"HOBOKEN";"2660";"VE_0000283";"GEPLAND"
"718";"34484";"51.18322926883700";"4.36413110204740";"";"VELOSTATION";"";"";"Steynstraat (2660)";"297-299";" ";"HOBOKEN";"2660";"VE_0000284";"GEPLAND"
"721";"34485";"51.18253306029600";"4.34810977695920";"";"VELOSTATION";"";"";"Berkenrodelei (2660)";"150";"naast 150";"HOBOKEN";"2660";"VE_0000286";"GEPLAND"
"724";"34486";"51.17748298372000";"4.35075776369040";"";"VELOSTATION";"";"";"Antwerpsesteenweg (2660)";"13-17";"to 13-17";"HOBOKEN";"2660";"VE_0000287";"GEPLAND"
"727";"34487";"51.17731646853700";"4.35972104864990";"";"VELOSTATION";"";"";"Draaiboomstraat (2660)";"44";"to 44";"HOBOKEN";"2660";"VE_0000288";"GEPLAND"
"730";"34488";"51.17355209328000";"4.35227976953920";"";"VELOSTATION";"";"";"Walstraat (2660)";"7-9";"to 7-9";"HOBOKEN";"2660";"VE_0000289";"GEPLAND"
"733";"34489";"51.17621078362900";"4.36769551569090";"";"VELOSTATION";"";"";"Sint-Bernardsesteenweg (2660)";"886";"to 886";"HOBOKEN";"2660";"VE_0000290";"GEPLAND"
"736";"34490";"51.18850272773200";"4.37270166400230";"";"VELOSTATION";"";"";"Maurits Sabbelaan (2020)";"16-18";"to 16-18";"ANTWERPEN";"2020";"VE_0000291";"GEPLAND"
"739";"34491";"51.19080618978100";"4.38100678061910";"";"VELOSTATION";"";"";"Jacob le Mairestraat (2020)";"8";"naast 8 aan keerlus";"ANTWERPEN";"2020";"VE_0000292";"GEPLAND"
"742";"34492";"51.18851572942900";"4.39094861270400";"";"VELOSTATION";"";"PLEIN";"Pol de Montstraat (2020)";"10";"to 10 oh plein";"ANTWERPEN";"2020";"VE_0000293";"GEPLAND"
"745";"34493";"51.19101607850800";"4.37669272998590";"";"VELOSTATION";"";"";"Valerius De Saedeleerstraat (2020)";"2";"to 2";"ANTWERPEN";"2020";"VE_0000294";"GEPLAND"
"748";"34494";"51.19427424166700";"4.37908936470660";"";"VELOSTATION";"";"";"Emiel Vloorsstraat (2660)";" ";"hoek August Leysweg";"ANTWERPEN";"2020";"VE_0000295";"GEPLAND"
"751";"34495";"51.19408253963700";"4.39304148808270";"";"VELOSTATION";"";"";"Eric Sasselaan (2020)";"69";"to 69";"ANTWERPEN";"2020";"VE_0000296";"GEPLAND"
"754";"34496";"51.19061935687100";"4.38893233134560";"";"VELOSTATION";"";"";"Jan De Voslei (2020)";" ";"thv C Huysmanslaan";"ANTWERPEN";"2020";"VE_0000297";"GEPLAND"
"757";"34497";"51.17189878603100";"4.38236681187760";"";"VELOSTATION";"";"";"Valkstraat (2610)";" ";"thv Gaston Fabrelaan";"WILRIJK";"2610";"VE_0000298";"GEPLAND"
"760";"34498";"51.19195410360500";"4.39834856424010";"";"VELOSTATION";"";"";"Camille Huysmanslaan (2020)";" ";"thv J V Rijswijcklaan";"ANTWERPEN";"2020";"VE_0000299";"GEPLAND"
"763";"34499";"51.18874660276100";"4.39770057980300";"";"VELOSTATION";"";"";"Vogelzanglaan (2020)";" ";"thv voetbalveld";"ANTWERPEN";"2020";"VE_0000300";"GEPLAND"
"766";"34500";"51.18883922223900";"4.45039308687790";"";"VELOSTATION";"";"";"Luchthavenlei (2100)";"1";"Op de parking van de luchthaven";"DEURNE";"2100";"VE_0000301";"IN_GEBRUIK"
"769";"34501";"51.17903993864700";"4.39047855595060";"";"VELOSTATION";"";"PLEIN";"Rozenkransplein (2610)";"11";"to 11 oh plein";"WILRIJK";"2610";"VE_0000302";"IN_GEBRUIK"
"772";"34502";"51.18372629872800";"4.35302174180870";"";"VELOSTATION";"";"";"Commandant Weynsstraat (2660)";"";"";"HOBOKEN";"2660";"VE_0000285";"GEPLAND"
"775";"34503";"51.24021409149500";"4.40842596042060";"";"VELOSTATION";"ENKELZIJDIG";"ANDERE";"Mexicostraat (2030)";"thv 37";"nieuw havenhuis";"ANTWERPEN";"2030";"VE_0000221";"IN_GEBRUIK"
"778";"34504";"51.23796977048000";"4.40976704696960";"";"VELOSTATION";"ENKELZIJDIG";"ANDERE";"Kambalastraat (2030)";"2";"";"ANTWERPEN";"2030";"VE_0000303";"IN_GEBRUIK"
"781";"34505";"51.24001147511800";"4.43370967796070";"";"VELOSTATION";"DUBBELZIJDIG";"";"Campiniastraat (2170)";"";"";"MERKSEM";"2170";"VE_0000304";"GEPLAND"
"784";"34506";"51.23063717837400";"4.41269573029240";"";"VELOSTATION";"DUBBELZIJDIG";"ANDERE";"Italiëlei (2000)";"558";"";"ANTWERPEN";"2000";"VE_0000128";"IN_GEBRUIK"
"787";"34507";"51.22613225797800";"4.42638142022920";"";"VELOSTATION";"DUBBELZIJDIG";"GROENZONE";"Van Kerckhovenstraat (2060)";"";"";"ANTWERPEN";"2060";"VE_0000156";"GEPLAND"
"790";"34508";"51.20362588520200";"4.42506004958650";"";"VELOSTATION";"DUBBELZIJDIG";"GROENZONE";"Hospitaalplein (2018)";"";"";"ANTWERPEN";"2018";"VE_0000161";"GEPLAND"
"793";"34509";"51.19131936791700";"4.44359619905910";"";"VELOSTATION";"DUBBELZIJDIG";"GROENZONE";"Ter Nieuwerbrugge (2600)";"";"";"BERCHEM";"2600";"VE_0000305";"GEPLAND"
"796";"34510";"51.17206748311700";"4.33806379994790";"";"VELOSTATION";"DUBBELZIJDIG";"GROENZONE";"Baron Sadoinestraat (2660)";"26";"";"HOBOKEN";"2660";"VE_0000307";"GEPLAND"
"799";"34511";"51.17107140072500";"4.36720079055780";"";"VELOSTATION";"ENKELZIJDIG";"PLEIN";"Majoor Maelfaitplein (2660)";"";"langsheen het plein";"HOBOKEN";"2660";"VE_0000308";"GEPLAND"
"802";"34512";"51.17088559984900";"4.34944015699200";"";"VELOSTATION";"DUBBELZIJDIG";"GROENZONE";"Paul Henri Spaaklaan (2660)";"";"";"HOBOKEN";"2660";"VE_0000309";"GEPLAND"
"805";"34513";"51.16716830083500";"4.35344259917580";"";"VELOSTATION";"DUBBELZIJDIG";"PLEIN";"Krijgsbaan (2660)";"";"";"HOBOKEN";"2660";"VE_0000310";"GEPLAND"
"808";"34514";"51.17633421976800";"4.34388241491850";"";"VELOSTATION";"ENKELZIJDIG";"VOETPAD";"Lumbeeckstraat (2660)";"14";"";"HOBOKEN";"2660";"VE_0000311";"GEPLAND"
"811";"34515";"51.18470941195100";"4.34250416410820";"";"VELOSTATION";"ENKELZIJDIG";"GROENZONE";"Graspolderlaan (2660)";"";"";"HOBOKEN";"2660";"VE_0000312";"GEPLAND"
"814";"34516";"51.16918742781600";"4.36343871126440";"";"VELOSTATION";"DUBBELZIJDIG";"MIDDENBERM";"Krijgsbaan (2660)";"";"";"HOBOKEN";"2660";"VE_0000314";"GEPLAND"
"817";"34517";"51.17403276417500";"4.37558031211510";"";"VELOSTATION";"ENKELZIJDIG";"GROENZONE";"Den Brem (2610)";"";"";"WILRIJK";"2610";"VE_0000320";"GEPLAND"
"820";"34518";"51.21744380237100";"4.37791304833330";"";"VELOSTATION";"DUBBELZIJDIG";"GROENZONE";"Galgenweellaan (2050)";"";"";"ANTWERPEN";"2050";"VE_0000163";"GEPLAND"
"823";"34519";"51.17292573420900";"4.34677940756730";"";"VELOSTATION";"DUBBELZIJDIG";"GROENZONE";"Emiel Vanderveldestraat (2660)";"";"";"HOBOKEN";"2660";"VE_0000313";"GEPLAND"
"826";"34520";"51.25240415390800";"4.43055854412690";"";"VELOSTATION";"ENKELZIJDIG";"GROENZONE";"Ganzemate (2170)";"";"";"MERKSEM";"2170";"VE_0000317";"GEPLAND"
"829";"34521";"51.17338866956000";"4.39395346537750";"";"VELOSTATION";"ENKELZIJDIG";"VOETPAD";"Gaston Fabrélaan (2610)";"";"";"WILRIJK";"2610";"VE_0000318";"GEPLAND"
"832";"34522";"51.18159654203900";"4.35211101380420";"";"VELOSTATION";"DUBBELZIJDIG";"GROENZONE";"IJskelderstraat (2660)";"";"";"HOBOKEN";"2660";"VE_0000315";"GEPLAND"
"835";"34523";"51.18174862654100";"4.35805736495480";"";"VELOSTATION";"DUBBELZIJDIG";"GROENZONE";"Dokter Emiel Van Dammestraat (2660)";"";"";"HOBOKEN";"2660";"VE_0000316";"GEPLAND"
"838";"34524";"51.17182467542400";"4.40351959513890";"";"VELOSTATION";"DUBBELZIJDIG";"GROENZONE";"Druivenstraat (2610)";"";"";"WILRIJK";"2610";"VE_0000319";"GEPLAND"
"841";"34525";"51.16698801006600";"4.38213360650260";"";"VELOSTATION";"ENKELZIJDIG";"GROENZONE";"Malisgoed (2610)";"";"";"WILRIJK";"2610";"VE_0000322";"GEPLAND"
"844";"34526";"51.17508736052200";"4.43012612450630";"";"VELOSTATION";"DUBBELZIJDIG";"PLEIN";"Monnikenplein (2610)";"";"";"WILRIJK";"2610";"VE_0000321";"GEPLAND"
"847";"34527";"51.21841904539100";"4.36766980800740";"";"VELOSTATION";"DUBBELZIJDIG";"GROENZONE";"Hugues C. Pernathlaan (2050)";"";"";"ANTWERPEN";"2050";"VE_0000162";"GEPLAND"
"850";"34528";"51.17488421223200";"4.35996437882960";"";"VELOSTATION";"DUBBELZIJDIG";"VOETPAD";"Paul Vekemanslaan (2660)";"";"";"HOBOKEN";"2660";"VE_0000325";"GEPLAND"
"853";"34529";"51.18745024245900";"4.36355144300540";"";"VELOSTATION";"ENKELZIJDIG";"GROENZONE";"Krugerbrug (2660)";"";"";"HOBOKEN";"2660";"VE_0000326";"GEPLAND"
"856";"34530";"51.17721493017800";"4.37485739100240";"";"VELOSTATION";"DUBBELZIJDIG";"PLEIN";"Ridderveld (2610)";"";"";"WILRIJK";"2610";"VE_0000327";"GEPLAND"
"859";"34531";"51.21923243303800";"4.47516411917460";"";"VELOSTATION";"DUBBELZIJDIG";"ANDERE";"Schotensesteenweg (2100)";"";"";"DEURNE";"2100";"VE_0000328";"GEPLAND"
"862";"34532";"51.17536491097900";"4.41893905893290";"";"VELOSTATION";"ENKELZIJDIG";"GROENZONE";"Oosterveldlaan (2610)";"43";"";"WILRIJK";"2610";"VE_0000323";"GEPLAND"
"865";"34533";"51.20428074117400";"4.46124333831580";"";"VELOSTATION";"DUBBELZIJDIG";"VOETPAD";"August Petenlei (2100)";"";"";"DEURNE";"2100";"VE_0000324";"GEPLAND"
"868";"34534";"51.22589701671800";"4.47079566660490";"";"VELOSTATION";"DUBBELZIJDIG";"PLEIN";"Baron Leroystraat (2100)";"";"";"DEURNE";"2100";"VE_0000329";"GEPLAND"
"871";"34535";"51.17224170407700";"4.35626659507990";"";"VELOSTATION";"ENKELZIJDIG";"GROENZONE";"Meerlenhoflaan (2660)";"";"ingang park";"HOBOKEN";"2660";"VE_0000330";"GEPLAND"
"874";"34536";"51.17554773470600";"4.33861090095340";"";"VELOSTATION";"DUBBELZIJDIG";"GROENZONE";"Zaatlaan (2660)";"";"";"HOBOKEN";"2660";"VE_0000331";"GEPLAND"
"877";"34537";"51.16747214096500";"4.38542152727930";"";"VELOSTATION";"DUBBELZIJDIG";"GROENZONE";"Michel Geysemansstraat (2610)";"";"";"WILRIJK";"2610";"VE_0000332";"GEPLAND"
"880";"34538";"51.25445610654800";"4.44175352646180";"";"VELOSTATION";"ENKELZIJDIG";"GROENZONE";"Frans Adriaenssensstraat (2170)";"123";"joma basisschool";"MERKSEM";"2170";"VE_0000333";"GEPLAND"
"883";"34539";"51.17277371003500";"4.40523973503490";"";"VELOSTATION";"DUBBELZIJDIG";"GROENZONE";"Schaliemolenstraat (2610)";"";"";"WILRIJK";"2610";"VE_000319B";"GEPLAND"
"886";"34540";"51.24825241933100";"4.44446433806390";"";"VELOSTATION";"ENKELZIJDIG";"ANDERE";"Speelpleinstraat (2170)";"";"";"MERKSEM";"2170";"VE_0000335";"GEPLAND"
"889";"34541";"51.16829797949200";"4.40557386469400";"";"VELOSTATION";"ENKELZIJDIG";"GROENZONE";"Dokter Donnyplein (2610)";"";"";"WILRIJK";"2610";"VE_000322b";"GEPLAND"
"892";"34542";"51.16894541561500";"4.37631557717300";"";"VELOSTATION";"ENKELZIJDIG";"GROENZONE";"Legerstraat (2610)";"";"";"WILRIJK";"2610";"VE_0000334";"GEPLAND"
"895";"34543";"51.17564274770400";"4.39607867327920";"";"VELOSTATION";"DUBBELZIJDIG";"ANDERE";"Sneeuwbeslaan (2610)";"";"Hoek met Laarstraat";"WILRIJK";"2610";"VE_0000336";"GEPLAND"
"898";"34544";"51.16375784492800";"4.35333455595050";"";"VELOSTATION";"ENKELZIJDIG";"VOETPAD";"Verenigde Natieslaan (2660)";"";"";"HOBOKEN";"2660";"VE_0000337";"GEPLAND"
